City_ID,City,Lat,Lng,Max Temp,Humidity,Cloudiness,Wind Speed,Country,Date
0,hilo,19.7297,-155.09,21.17,90,100,2.06,US,1680888967
1,pangai,-19.8,-174.35,25.06,94,20,1.03,TO,1680888997
2,vaini,-21.2,-175.2,25.09,100,75,2.06,TO,1680888997
3,kamaishi,39.2667,141.8833,11.45,92,100,1.42,JP,1680888998
4,khatanga,71.9667,102.5,-20.42,97,100,6.01,RU,1680888998
5,longyearbyen,78.2186,15.6401,-8.09,73,75,8.75,SJ,1680888999
6,hermanus,-34.4187,19.2345,14.33,79,100,2.72,ZA,1680888999
7,ushuaia,-54.8,-68.3,9.79,70,40,6.69,AR,1680888979
8,klaksvik,62.2266,-6.589,8.51,87,25,8.52,FO,1680889000
9,esperance,-33.8667,121.9,15.21,76,93,4.88,AU,1680889000
10,liuzhou,24.3126,109.3892,17.89,54,94,6.19,CN,1680889001
11,puerto escondido,15.85,-97.0667,29.46,79,20,3.6,MX,1680889001
12,puerto ayora,-0.7393,-90.3518,29.98,87,100,4.02,EC,1680889002
13,thompson,55.7435,-97.8558,4.09,30,20,5.66,CA,1680889002
14,damietta,31.4165,31.8133,17.64,83,43,7.01,EG,1680888842
15,antalaha,-14.9003,50.2788,25.78,84,100,4.65,MG,1680888987
16,nokaneng,-19.6667,22.2667,26.56,33,50,2.1,BW,1680889004
17,rikitea,-23.1203,-134.9692,25.19,65,48,5.24,PF,1680889004
18,namibe,-15.1961,12.1522,24.15,78,91,4.15,AO,1680889004
19,upernavik,72.7868,-56.1549,-24.85,91,75,4.85,GL,1680889005
20,olafsvik,64.8945,-23.7142,6.69,84,100,11.87,IS,1680889005
21,mwense,-10.3845,28.698,19.42,96,65,1.97,ZM,1680889006
22,kapaa,22.0752,-159.319,23.18,86,75,6.17,US,1680889006
23,cape town,-33.9258,18.4232,16.72,84,75,5.14,ZA,1680888620
24,worland,44.0169,-107.9554,10.88,37,0,4.02,US,1680889007
25,vila do maio,15.1333,-23.2167,27.44,75,81,6.55,CV,1680889008
26,kununurra,-15.7667,128.7333,26.99,83,100,0.0,AU,1680889008
27,saint george,37.1041,-113.5841,15.8,25,0,3.6,US,1680888863
28,cabo san lucas,22.8909,-109.9124,29.23,36,0,1.54,MX,1680889009
29,portland,45.5234,-122.6762,12.35,90,100,3.58,US,1680888587
30,east london,-33.0153,27.9116,21.52,78,40,5.66,ZA,1680889000
31,atuona,-9.8,-139.0333,27.31,70,75,8.69,PF,1680889011
32,dingle,10.9995,122.6711,23.16,85,13,2.19,PH,1680889011
33,ribeira grande,38.5167,-28.7,14.32,54,40,6.17,PT,1680889011
34,magadan,59.5667,150.8,-17.01,97,82,2.37,RU,1680889012
35,faanui,-16.4833,-151.75,28.64,76,89,9.03,PF,1680889012
36,cidreira,-30.1811,-50.2056,20.63,75,100,3.85,BR,1680889013
37,sao joao da barra,-21.6403,-41.0511,30.05,75,21,4.49,BR,1680889013
38,punta arenas,-53.15,-70.9167,6.06,81,100,12.86,CL,1680888740
39,busselton,-33.65,115.3333,13.65,75,65,5.31,AU,1680889014
40,ajaccio,42.0,8.9167,15.03,72,20,3.6,FR,1680888892
41,pevek,69.7008,170.3133,-31.4,98,77,1.72,RU,1680889015
42,mataura,-46.1927,168.8643,3.19,97,10,1.28,NZ,1680889015
43,touros,-5.1989,-35.4608,27.92,76,92,6.56,BR,1680888760
44,machali,-34.1833,-70.6667,26.6,29,0,3.6,CL,1680889017
45,kovdor,67.5662,30.4758,0.58,92,100,4.34,RU,1680889017
46,kruisfontein,-34.0033,24.7314,17.16,90,14,4.69,ZA,1680889018
47,seymchan,62.8833,152.4333,-20.8,100,96,0.56,RU,1680889018
48,smithers,54.7804,-127.1743,7.18,57,75,3.09,CA,1680889019
49,tinyahuarco,-10.75,-76.3,8.69,69,99,4.33,PE,1680889019
50,carnarvon,-24.8667,113.6333,21.53,59,0,5.66,AU,1680889020
51,kaeo,-35.1,173.7833,15.74,83,97,4.29,NZ,1680889020
52,kargil,34.5667,76.1,-5.77,68,53,1.83,IN,1680889021
53,souillac,-20.5167,57.5167,26.21,83,75,3.09,MU,1680889021
54,manggar,-2.8833,108.2667,25.32,82,100,1.74,ID,1680889022
55,laguna de perlas,12.3429,-83.6712,26.05,66,86,4.98,NI,1680889022
56,naze,28.3667,129.4833,15.51,64,88,7.92,JP,1680889023
57,lasa,46.6166,10.7002,10.49,89,100,1.14,IT,1680889024
58,pedernales,18.0384,-71.744,27.05,58,6,3.63,DO,1680889024
59,tuktoyaktuk,69.4541,-133.0374,-13.0,85,100,4.12,CA,1680889025
60,cherskiy,68.75,161.3,-27.45,100,100,2.04,RU,1680889026
61,hengyang,26.8881,112.615,15.38,73,76,1.75,CN,1680889026
62,rawson,-43.3002,-65.1023,14.49,44,100,4.89,AR,1680889027
63,san pedro de macoris,18.4616,-69.2972,23.07,65,22,5.01,DO,1680889027
64,matagami,49.7502,-77.6328,-5.94,38,0,7.72,CA,1680889028
65,yellowknife,62.456,-114.3525,3.29,60,75,10.29,CA,1680889029
66,vila velha,-20.3297,-40.2925,28.97,83,40,4.63,BR,1680889029
67,port alfred,-33.5906,26.891,20.1,79,56,2.24,ZA,1680888759
68,saskylakh,71.9167,114.0833,-19.23,96,100,5.57,RU,1680889030
69,kiama,-34.6833,150.8667,16.81,75,42,3.13,AU,1680889031
70,vanavara,60.34,102.2797,-21.19,91,57,3.48,RU,1680889031
71,georgetown,5.4112,100.3354,28.96,83,20,3.6,MY,1680888963
72,carutapera,-1.195,-46.02,26.56,86,93,3.18,BR,1680889032
73,albany,42.6001,-73.9662,8.29,43,90,1.34,US,1680888816
74,airai,-8.9266,125.4092,14.83,85,100,0.83,TL,1680889033
75,butaritari,3.0707,172.7902,27.23,82,100,7.82,KI,1680889033
76,san quintin,30.4833,-115.95,17.6,52,78,4.03,MX,1680889034
77,napier,-39.4833,176.9167,11.27,85,100,2.24,NZ,1680888865
78,iralaya,15.0,-83.2333,28.47,60,0,4.67,HN,1680889035
79,xingcheng,40.6167,120.7167,6.07,32,22,2.47,CN,1680889036
80,hithadhoo,-0.6,73.0833,28.1,64,12,1.13,MV,1680889036
81,sitka,57.0531,-135.33,3.94,87,100,0.0,US,1680888792
82,eenhana,-17.4667,16.3333,26.16,30,80,1.15,NA,1680889038
83,tshikapa,-6.4167,20.8,23.6,83,89,1.17,CD,1680889038
84,broome,42.2506,-75.833,7.79,52,40,8.23,US,1680889039
85,bethel,41.3712,-73.414,14.73,25,0,4.63,US,1680889039
86,tasiilaq,65.6145,-37.6368,-0.91,92,100,15.92,GL,1680889040
87,teahupoo,-17.8333,-149.2667,23.98,78,100,8.74,PF,1680889040
88,lyuban,52.7985,28.0048,6.22,88,100,2.1,BY,1680889041
89,springdale,36.1867,-94.1288,15.58,31,0,6.17,US,1680888935
90,mar del plata,-38.0023,-57.5575,26.02,81,0,5.36,AR,1680889042
91,lorengau,-2.0226,147.2712,25.7,88,100,4.11,PG,1680889042
92,barrow,71.2906,-156.7887,-20.99,77,100,3.6,US,1680889043
93,ilulissat,69.2167,-51.1,-7.99,53,20,6.69,GL,1680889043
94,riyadh,24.6877,46.7219,29.08,16,68,4.57,SA,1680888872
95,stafford,52.8052,-2.1164,13.74,45,7,1.59,GB,1680889044
96,salalah,17.0151,54.0924,28.05,69,20,3.6,OM,1680889045
97,bredasdorp,-34.5322,20.0403,15.8,75,100,2.26,ZA,1680889045
98,avarua,-21.2078,-159.775,26.03,83,40,2.57,CK,1680889046
99,talnakh,69.4865,88.3972,-29.33,99,90,2.77,RU,1680889046
100,qaanaaq,77.484,-69.3632,-23.3,71,0,2.45,GL,1680889047
101,south yarmouth,41.6668,-70.1847,16.21,49,0,6.69,US,1680889047
102,hobart,-42.8794,147.3294,14.59,89,100,0.0,AU,1680889048
103,yumen,40.2833,97.2,6.56,13,3,3.15,CN,1680889048
104,kalaleh,37.3807,55.4916,15.78,77,20,2.06,IR,1680889049
105,bluff,-46.6,168.3333,7.23,85,26,3.26,NZ,1680889049
106,walvis bay,-22.9575,14.5053,16.83,83,34,7.55,NA,1680889050
107,kupang,-10.1667,123.5833,24.98,86,100,1.75,ID,1680889050
108,fare,-16.7,-151.0167,28.21,78,95,7.78,PF,1680889051
109,piet retief,-27.0071,30.8132,14.39,69,4,1.25,ZA,1680889052
110,uglegorsk,49.0833,142.0333,-0.97,96,99,3.21,RU,1680889052
111,winnemucca,40.973,-117.7357,7.85,50,100,2.57,US,1680889053
112,mabaruma,8.2,-59.7833,30.87,43,85,4.51,GY,1680889053
113,tyrma,50.0833,132.1667,-2.12,77,100,0.66,RU,1680889053
114,saint-georges,12.0564,-61.7485,29.82,62,20,12.35,GD,1680889054
115,saint-philippe,-21.3585,55.7679,25.77,86,91,4.46,RE,1680889054
116,bhatgaon,21.15,81.7,30.72,26,63,3.16,IN,1680889055
117,baoqing,46.3317,132.2111,-1.73,36,0,2.86,CN,1680889055
118,eureka,40.8021,-124.1637,11.48,95,99,2.24,US,1680889056
119,san buenaventura,27.0833,-101.5333,14.51,77,100,2.06,MX,1680889056
120,new norfolk,-42.7826,147.0587,14.4,74,99,0.45,AU,1680889057
121,jamestown,42.097,-79.2353,6.4,45,0,5.14,US,1680888962
122,hualmay,-11.0964,-77.6139,27.18,69,98,4.75,PE,1680889057
123,yatou,37.15,122.3833,4.21,42,0,5.43,CN,1680889058
124,marigot,18.0667,-63.0833,28.88,68,40,7.72,MF,1680889059
125,rock sound,24.9,-76.2,24.41,73,1,7.54,BS,1680889059
126,kamenka,51.3223,42.7678,11.72,55,98,5.22,RU,1680889060
127,mahebourg,-20.4081,57.7,26.16,83,75,3.09,MU,1680889060
128,yerbogachen,61.2767,108.0108,-21.38,89,52,5.02,RU,1680889061
129,rantepao,-2.9701,119.8978,19.08,95,100,1.43,ID,1680889061
130,locri,38.2414,16.2623,11.29,73,46,1.76,IT,1680889062
131,zhongshu,24.5167,103.7667,12.96,93,40,2.63,CN,1680889063
132,chokurdakh,70.6333,147.9167,-30.88,100,67,1.28,RU,1680889063
133,saint anthony,45.0205,-93.218,7.27,56,0,6.17,US,1680889063
134,san rafael,-34.6177,-68.3301,28.09,30,91,6.1,AR,1680889064
135,fortuna,40.5982,-124.1573,10.37,94,100,1.79,US,1680889064
136,margate,51.3813,1.3862,11.6,74,6,1.34,GB,1680889065
137,nicoya,10.1483,-85.452,34.7,34,97,3.54,CR,1680889065
138,ankang,32.68,109.0172,13.41,45,100,0.89,CN,1680889066
139,barpathar,26.3,93.8667,21.35,66,15,0.57,IN,1680889067
140,mehamn,71.0357,27.8492,2.97,75,100,4.12,NO,1680889067
141,maloy,61.9353,5.1136,8.18,57,97,4.27,NO,1680889068
142,jieshi,22.8134,115.8257,19.04,82,99,8.05,CN,1680889068
143,marquette,46.5333,-87.6335,2.36,58,47,2.24,US,1680889069
144,bandarbeyla,9.4942,50.8122,27.43,66,33,4.12,SO,1680889070
145,tiksi,71.6872,128.8694,-24.96,100,91,1.8,RU,1680889070
146,seminole,28.7086,-81.2081,32.86,54,0,1.34,US,1680888992
147,arraial do cabo,-22.9661,-42.0278,29.98,69,75,7.2,BR,1680889071
148,guerrero negro,27.9769,-114.0611,19.83,40,7,5.19,MX,1680889072
149,gat,31.61,34.7642,23.0,37,69,1.19,IL,1680889073
150,camacha,33.0833,-16.3333,17.68,55,20,4.63,PT,1680889073
151,vardo,70.3705,31.1107,2.99,81,100,4.63,NO,1680889074
152,lebu,-37.6167,-73.65,15.67,59,99,7.6,CL,1680889074
153,marystown,47.1666,-55.1483,3.81,100,97,4.02,CA,1680889074
154,la romana,18.4273,-68.9728,20.2,100,75,3.09,DO,1680889075
155,chapais,49.7834,-74.8492,-8.12,77,100,7.45,CA,1680889075
156,avera,33.194,-82.5271,28.03,56,72,2.98,US,1680889076
157,bambous virieux,-20.3428,57.7575,26.14,83,75,3.09,MU,1680889076
158,shinshiro,34.9,137.5,12.43,83,70,5.4,JP,1680889077
159,nemuro,43.3236,145.575,3.08,99,100,3.51,JP,1680889077
160,luderitz,-26.6481,15.1594,16.92,76,0,7.49,NA,1680889077
161,gunzburg,48.45,10.2667,10.22,91,100,2.49,DE,1680888809
162,bowen,-20.0167,148.2333,26.81,83,61,4.72,AU,1680889078
163,okakarara,-20.5833,17.4333,22.13,38,71,1.48,NA,1680889079
164,noumea,-22.2763,166.4572,18.99,78,3,1.56,NC,1680889079
165,mossendjo,-2.9506,12.7261,23.46,91,100,0.88,CG,1680889080
166,alice springs,-23.7,133.8833,15.75,88,75,0.0,AU,1680889080
167,quelimane,-17.8786,36.8883,26.97,74,40,2.57,MZ,1680889081
168,mananjary,-21.2167,48.3333,24.15,82,100,0.6,MG,1680889081
169,karratha,-20.7377,116.8463,28.66,62,31,3.84,AU,1680889082
170,lagoa,39.05,-27.9833,12.0,67,52,6.45,PT,1680889082
171,qiongshan,20.0058,110.3542,21.99,94,100,4.0,CN,1680889083
172,canakkale,40.0833,26.8333,8.32,90,34,2.07,TR,1680889083
173,el salto,20.3333,-104.5,28.45,17,0,1.97,MX,1680889084
174,baton rouge,30.4508,-91.1545,19.4,81,100,4.63,US,1680889084
175,socha,5.9976,-72.6928,13.13,87,100,1.63,CO,1680889085
176,codrington,-38.2667,141.9667,14.22,89,95,6.23,AU,1680889086
177,sao filipe,14.8961,-24.4956,22.6,77,63,6.57,CV,1680889086
178,hojai,26.0,92.8667,23.0,47,3,1.86,IN,1680889087
179,iqaluit,63.7506,-68.5145,-19.15,65,20,10.29,CA,1680889087
180,odienne,9.51,-7.5692,29.07,51,70,1.92,CI,1680889088
181,clyde,41.3042,-82.9752,8.99,63,98,5.61,US,1680889089
182,leskovac,42.9981,21.9461,6.77,86,75,0.62,RS,1680889089
183,lompoc,34.6391,-120.4579,17.14,69,40,4.12,US,1680888825
184,nanortalik,60.1432,-45.2371,-0.34,82,28,6.08,GL,1680889090
185,birao,10.2849,22.7882,31.16,10,85,2.89,CF,1680889091
186,boyolangu,-8.1181,111.8935,23.85,88,97,0.95,ID,1680889091
187,kousseri,12.0769,15.0306,39.98,16,71,1.03,CM,1680889092
188,kaseda,31.4167,130.3167,14.35,65,8,11.16,JP,1680889092
189,tombouctou,20.0,-3.0,30.51,10,92,2.56,ML,1680889093
190,korfez,40.7767,29.7297,10.44,94,98,3.0,TR,1680889093
191,lincoln,40.8,-96.667,18.97,31,0,7.72,US,1680889094
192,flin flon,54.7682,-101.865,-0.09,32,0,3.09,CA,1680889095
193,tuatapere,-46.1333,167.6833,5.09,90,17,2.3,NZ,1680889095
194,ponta do sol,32.6667,-17.1,19.51,67,26,2.24,PT,1680889096
195,corn island,12.1694,-83.0418,26.35,76,54,6.98,NI,1680889097
196,saint-augustin,51.226,-58.6502,3.64,46,91,7.01,CA,1680889097
197,egvekinot,66.3167,-179.1667,-26.3,88,61,1.9,RU,1680889098
198,bireun,5.203,96.7009,25.89,85,93,2.03,ID,1680889098
199,moron,-34.6534,-58.6198,26.64,56,2,3.18,AR,1680889099
200,port macquarie,-31.4333,152.9167,14.94,79,5,3.6,AU,1680889099
201,pamekasan,-7.1568,113.4746,25.56,82,100,1.68,ID,1680889100
202,dikson,73.5069,80.5464,-31.5,100,87,4.25,RU,1680889100
203,gasa,31.5,34.4667,18.82,60,70,2.49,PS,1680889101
204,aquiraz,-3.9014,-38.3911,27.05,77,91,3.97,BR,1680889101
205,wajir,1.7471,40.0573,29.98,62,40,1.54,KE,1680889101
206,goderich,43.7501,-81.7165,2.73,55,46,6.17,CA,1680889102
207,ambilobe,-13.2,49.05,23.93,91,21,1.36,MG,1680889102
208,ancud,-41.8697,-73.8203,14.19,68,95,2.31,CL,1680889103
209,torbay,47.6666,-52.7314,7.16,79,75,10.29,CA,1680889103
210,fukue,32.6881,128.8419,11.34,57,3,12.75,JP,1680889104
211,chuy,-33.6971,-53.4616,22.71,55,99,4.17,UY,1680889105
212,asfi,32.2994,-9.2372,18.26,76,0,2.81,MA,1680889105
213,whitehorse,60.7161,-135.0538,2.43,69,20,4.63,CA,1680889106
214,huarmey,-10.0681,-78.1522,27.05,69,100,3.55,PE,1680889106
215,soyo,-6.1349,12.3689,27.14,82,100,3.2,AO,1680889107
216,port elizabeth,-33.918,25.5701,19.16,76,0,6.17,ZA,1680889107
217,ahipara,-35.1667,173.1667,14.99,85,100,3.23,NZ,1680889108
218,sindor,62.8629,51.8905,-6.01,94,92,2.62,RU,1680889109
219,berlevag,70.8578,29.0864,3.0,75,100,4.63,NO,1680889110
220,fairbanks,64.8378,-147.7164,-13.77,76,0,1.54,US,1680889110
221,morozovsk,48.3539,41.8261,12.44,62,73,4.72,RU,1680889112
222,arrifes,37.7667,-25.7,11.14,71,75,6.69,PT,1680889113
223,mannarakkat,10.9833,76.4667,25.88,83,59,0.63,IN,1680889113
224,provideniya,64.3833,-173.3,-25.73,96,77,1.82,RU,1680889114
225,katsuura,35.1333,140.3,18.63,92,99,10.81,JP,1680889114
226,saldanha,-33.0117,17.9442,17.03,84,97,8.5,ZA,1680889115
227,hamilton,39.1834,-84.5333,13.82,42,0,6.17,US,1680889115
228,clyde river,70.4692,-68.5914,-18.87,71,40,4.12,CA,1680889116
229,caserta,41.0832,14.3349,13.51,63,29,2.0,IT,1680889116
230,bengkulu,-3.8004,102.2655,24.48,87,99,1.8,ID,1680889117
231,baruun-urt,46.6806,113.2792,0.96,33,1,5.06,MN,1680889117
232,dekernes,31.0876,31.595,16.06,78,20,4.27,EG,1680889118
233,manching,48.7166,11.4939,10.62,57,94,1.54,DE,1680889118
234,verkhnevilyuysk,63.4453,120.3167,-8.95,95,91,2.94,RU,1680889119
235,los llanos de aridane,28.6585,-17.9182,17.86,70,75,2.68,ES,1680889119
236,zharkent,44.1628,80.0,11.73,64,100,10.28,KZ,1680889120
237,dire,12.2833,-10.9667,38.5,11,87,1.16,ML,1680889120
238,stony plain,53.5334,-114.0021,6.52,61,0,4.63,CA,1680889121
239,ixtapa,20.7,-105.2,24.57,69,20,3.6,MX,1680889121
240,nikolskoye,59.7035,30.7861,5.94,94,35,2.15,RU,1680889122
241,mahibadhoo,3.7833,72.9667,28.02,68,70,0.87,MV,1680889122
242,victoria,22.2855,114.1577,22.89,86,64,0.45,HK,1680889007
243,shirokiy,49.758,129.523,-0.32,72,94,5.78,RU,1680889123
244,grand gaube,-20.0064,57.6608,26.22,77,58,0.89,MU,1680889124
245,coquimbo,-29.9533,-71.3436,17.85,82,75,7.2,CL,1680889078
246,tucuman,-26.8241,-65.2226,27.0,65,20,2.06,AR,1680889125
247,gorontalo,0.5412,123.0595,23.51,96,87,1.52,ID,1680889125
248,yulara,-25.2406,130.9889,17.46,42,17,3.42,AU,1680889126
249,kualakapuas,-3.0091,114.3876,23.4,95,100,0.84,ID,1680889127
250,itamaraca,-7.7478,-34.8256,30.03,66,72,5.0,BR,1680889127
251,lively,46.4334,-81.1498,-1.49,55,20,3.74,CA,1680889128
252,ulladulla,-35.35,150.4667,15.66,71,62,5.21,AU,1680889128
253,aguimes,27.9054,-15.4461,19.35,60,20,8.75,ES,1680889128
254,mirnyy,62.5353,113.9611,-21.21,89,82,2.56,RU,1680889129
255,norman wells,65.282,-126.8329,-11.98,72,75,6.17,CA,1680889130
256,gogrial,8.5332,28.1004,33.33,12,10,1.9,SS,1680889130
257,hasaki,35.7333,140.8333,18.45,92,100,14.68,JP,1680889131
258,moctezuma,29.8,-109.6667,24.6,11,0,1.96,MX,1680889131
259,darnah,32.767,22.6367,13.93,66,70,4.89,LY,1680889132
260,fernie,49.5,-115.0687,10.05,81,100,2.48,CA,1680889132
261,longhua,23.6137,114.1919,16.46,78,27,1.61,CN,1680889133
262,kloulklubed,7.0419,134.2556,25.28,61,100,5.85,PW,1680889133
263,kargala,56.6208,83.9607,-12.84,80,34,4.21,RU,1680889134
264,raga,8.4596,25.678,30.08,15,56,1.47,SS,1680889134
265,khasan,42.4308,130.6434,2.39,42,15,1.51,RU,1680889135
266,joppatowne,39.4579,-76.3552,13.95,33,100,3.6,US,1680889136
267,pokoynoye,44.8097,44.2517,14.15,55,100,2.65,RU,1680889136
268,bardstown,37.8092,-85.4669,12.52,46,100,5.66,US,1680889137
269,uyemskiy,64.4743,40.8524,-2.97,63,0,1.0,RU,1680889137
270,isabela,6.7085,121.9711,25.88,83,39,3.35,PH,1680889087
271,vila,42.0304,-8.1588,17.49,58,77,1.91,PT,1680889138
272,bondo,3.8146,23.6866,24.57,68,68,1.7,CD,1680889138
273,poum,-20.2333,164.0167,24.88,67,4,1.85,NC,1680889139
274,axim,4.8699,-2.2405,28.02,78,94,4.64,GH,1680889139
275,ginir,7.1333,40.7,15.97,81,100,1.06,ET,1680889140
276,fuyu,45.1833,124.8167,-0.14,60,77,4.77,CN,1680889140
277,tangshan,39.6333,118.1833,8.43,29,0,5.77,CN,1680889142
278,kuytun,54.3419,101.5036,3.0,61,39,5.04,RU,1680889143
279,severo-yeniseyskiy,60.3725,93.0408,-24.6,97,100,2.54,RU,1680889144
280,ilhabela,-23.7781,-45.3581,22.22,94,100,0.81,BR,1680889144
281,xining,36.6167,101.7667,2.55,52,100,0.25,CN,1680889145
282,gewane,10.1664,40.6453,29.97,49,98,3.79,ET,1680889146
283,vilyuysk,63.7553,121.6247,-3.64,94,100,3.44,RU,1680889146
284,marzuq,14.4,46.4667,22.19,72,71,3.39,YE,1680889147
285,uige,-7.6087,15.0613,20.31,98,99,0.86,AO,1680889148
286,chumikan,54.7183,135.315,-6.37,95,100,6.13,RU,1680889148
287,barabai,-2.5833,115.3833,23.19,96,97,0.45,ID,1680889149
288,korla,41.7597,86.1469,9.29,18,6,3.52,CN,1680889149
289,sabha,27.0377,14.4283,26.49,16,100,6.99,LY,1680889150
290,bontang,0.1333,117.5,24.08,91,100,1.48,ID,1680889150
291,mattru,7.6244,-11.8332,30.43,60,92,3.28,SL,1680889151
292,ginda,30.6945,78.4932,10.84,37,0,3.63,IN,1680889151
293,severo-kurilsk,50.6789,156.125,0.37,97,100,10.72,RU,1680889152
294,aswan,24.0934,32.907,34.61,5,0,2.06,EG,1680889026
295,morondava,-20.2833,44.2833,26.53,81,85,3.35,MG,1680889153
296,maningrida,-12.0667,134.2667,24.4,93,100,1.92,AU,1680889153
297,port antonio,18.18,-76.4612,28.95,62,29,3.1,JM,1680889154
298,severobaykalsk,55.65,109.3167,-4.73,89,99,0.71,RU,1680889154
299,haines junction,60.7522,-137.5108,0.97,55,100,2.06,CA,1680889155
300,sechura,-5.5569,-80.8222,29.44,60,77,4.61,PE,1680889156
301,senador guiomard,-10.1522,-67.7392,27.86,92,97,2.12,BR,1680889156
302,padang,-0.9492,100.3543,25.03,88,94,1.39,ID,1680889157
303,college,64.8569,-147.8028,-13.78,76,0,1.54,US,1680889131
304,znamenskoye,57.1281,73.8282,-9.86,80,6,1.84,RU,1680889158
305,geraldton,-28.7667,114.6,17.23,67,100,3.6,AU,1680889158
306,pacific grove,36.6177,-121.9166,13.57,82,100,4.47,US,1680889159
307,caibarien,22.5206,-79.4669,29.62,57,24,7.06,CU,1680889159
308,luanda,-8.8368,13.2343,28.0,78,75,3.6,AO,1680889160
309,topolobampo,25.6,-109.05,21.95,53,0,5.14,MX,1680889160
310,comodoro rivadavia,-45.8667,-67.5,15.92,39,0,7.2,AR,1680889121
311,nhamunda,-2.1861,-56.7131,30.97,56,91,1.82,BR,1680889161
312,la rioja,42.25,-2.5,18.88,41,46,0.67,ES,1680889162
313,beyneu,45.3167,55.2,17.74,35,87,4.89,KZ,1680889163
314,peniche,39.3558,-9.3811,22.82,72,13,4.67,PT,1680889163
315,tecoanapa,16.5167,-98.75,29.43,52,0,4.51,MX,1680889164
316,sept-iles,50.2001,-66.3821,2.24,52,75,11.32,CA,1680888881
317,cap malheureux,-19.9842,57.6142,25.26,78,55,0.89,MU,1680889165
318,havre,49.5833,0.3333,12.22,58,0,4.63,FR,1680889165
319,comarapa,-17.9,-64.4833,18.78,65,80,1.99,BO,1680889166
320,makhachkala,42.9764,47.5024,8.99,86,68,2.6,RU,1680889166
321,paamiut,61.994,-49.6678,0.34,70,26,6.54,GL,1680889166
322,chebarkul,54.9749,60.3633,-2.47,38,0,1.8,RU,1680889167
323,chakia,26.4167,85.05,25.6,13,65,3.86,IN,1680889168
324,daund,18.4667,74.6,26.07,55,56,2.92,IN,1680889169
325,cacapava do sul,-30.5122,-53.4914,20.0,63,100,4.82,BR,1680889170
326,mujiayingzi,42.1167,118.7833,1.18,32,2,2.72,CN,1680889170
327,eyemouth,55.8713,-2.0901,10.45,91,98,2.35,GB,1680889171
328,dzhebariki-khaya,62.2167,135.8,-28.22,93,19,1.02,RU,1680889171
329,trinidad,-14.8333,-64.9,28.99,61,75,4.63,BO,1680889172
330,sakaiminato,35.55,133.2333,7.99,93,40,1.54,JP,1680889172
331,hudiksvall,61.729,17.1036,1.19,92,95,1.81,SE,1680889173
332,belmonte,-15.8631,-38.8828,28.35,66,42,2.97,BR,1680889174
333,hofn,64.2539,-15.2082,7.18,84,100,8.87,IS,1680889174
334,challapata,-18.9,-66.7667,14.12,32,21,4.82,BO,1680889175
335,seddon,-37.8068,144.8916,16.53,88,75,7.2,AU,1680889176
336,mahon,39.8885,4.2658,15.31,63,0,3.09,ES,1680889176
337,morden,49.1919,-98.1014,-3.84,73,25,3.09,CA,1680889177
338,ixtacomitan,17.4167,-93.1,30.88,56,23,2.57,MX,1680889177
339,oskemen,49.9565,82.6119,13.98,41,100,7.0,KZ,1680889178
340,biak,-0.9131,122.8766,24.67,76,90,1.76,ID,1680889179
341,gangapur,26.4833,76.7167,26.93,16,17,4.07,IN,1680889179
342,takoradi,4.8845,-1.7554,28.17,77,100,5.3,GH,1680889180
343,sioux lookout,50.1001,-91.917,-0.96,55,75,3.6,CA,1680889174
344,seduva,55.7667,23.7667,11.24,89,98,2.88,LT,1680889181
345,bezhetsk,57.7851,36.6965,2.78,70,19,3.38,RU,1680889181
346,batemans bay,-35.7167,150.1833,12.45,84,52,2.65,AU,1680889181
347,pangnirtung,66.1451,-65.7125,-19.0,78,20,3.6,CA,1680889182
348,labuhan,-6.8844,112.2051,25.17,86,99,3.17,ID,1680889182
349,prince albert,53.2001,-105.7677,-4.03,68,0,5.66,CA,1680889183
350,valparaiso,-33.0393,-71.6273,22.13,59,0,3.09,CL,1680889183
351,kodiak,57.79,-152.4072,-1.27,69,100,3.09,US,1680889184
352,mweka,-4.85,21.5667,25.13,69,76,1.11,CD,1680889184
353,castro,-24.7911,-50.0119,20.26,83,94,1.79,BR,1680889185
354,necochea,-38.5473,-58.7368,26.0,40,1,1.76,AR,1680889000
355,sabang,5.8933,95.3214,28.2,72,92,1.72,ID,1680889186
356,caravelas,-17.7125,-39.2481,28.67,60,31,4.07,BR,1680889186
357,kaitangata,-46.2817,169.8464,4.66,91,10,1.4,NZ,1680889187
358,byron bay,-28.65,153.6167,19.84,87,26,4.49,AU,1680889187
359,kavaratti,10.5669,72.642,28.26,73,5,2.78,IN,1680889188
360,muros,42.7762,-9.0603,24.27,50,90,0.43,ES,1680889188
361,masunga,-20.6246,27.4488,22.17,30,3,2.19,BW,1680889189
362,payson,40.0444,-111.7321,10.14,36,75,3.09,US,1680888915
363,maymyo,22.0333,96.4667,22.17,29,1,0.88,MM,1680889190
364,volkhov,59.9258,32.3382,-0.25,96,34,2.02,RU,1680889190
365,boden,65.8252,21.6886,1.0,96,83,2.39,SE,1680889191
366,north battleford,52.7834,-108.2847,-1.44,79,0,10.8,CA,1680889016
367,east bethel,45.3194,-93.2025,6.71,56,0,5.14,US,1680889192
368,kiruna,67.8557,20.2251,-0.49,86,75,1.54,SE,1680889193
369,chara,56.9064,118.2631,-10.56,77,98,1.04,RU,1680889193
370,marawi,7.9986,124.2928,19.19,93,61,0.62,PH,1680889194
371,fort nelson,58.8053,-122.7002,7.77,53,75,2.06,CA,1680888962
372,narsaq,60.9167,-46.05,4.12,66,27,2.27,GL,1680889195
373,neryungri,56.6709,124.6491,-20.99,99,46,1.89,RU,1680889195
374,udaipur,24.5712,73.6918,26.8,19,98,2.96,IN,1680889051
375,yuxia,34.0615,108.6291,11.34,40,97,0.88,CN,1680889196
376,reynoldsburg,39.9548,-82.8121,13.04,37,100,4.12,US,1680889196
377,tigil,57.8,158.6667,-17.77,100,79,1.28,RU,1680889197
378,tanout,14.9709,8.8879,33.15,9,14,3.14,NE,1680889197
379,belyy yar,53.6039,91.3903,-0.06,64,0,9.0,RU,1680889199
380,hambantota,6.1241,81.1185,26.62,76,54,3.63,LK,1680889199
381,bosaso,11.2842,49.1816,27.51,77,46,0.82,SO,1680889028
382,chabahar,25.2919,60.643,24.06,69,1,1.96,IR,1680889200
383,pineville,31.3224,-92.4343,14.4,90,100,3.09,US,1680889088
384,collie,-33.3667,116.15,13.83,67,99,4.57,AU,1680889201
385,oranjestad,12.524,-70.027,28.97,70,75,8.23,AW,1680888946
386,myaundzha,63.0494,147.1858,-25.99,99,52,0.9,RU,1680889202
387,newry,54.1784,-6.3374,10.06,82,91,3.94,GB,1680889203
388,orel,52.9658,36.0803,9.62,69,99,3.82,RU,1680889204
389,waingapu,-9.6567,120.2641,25.18,86,100,2.35,ID,1680889204
390,vincennes,48.85,2.4333,13.9,57,75,5.14,FR,1680889205
391,westerland,54.9079,8.3033,8.01,61,20,6.69,DE,1680889205
392,basco,20.4487,121.9702,23.6,83,94,14.06,PH,1680889206
393,praya,14.9215,-23.5087,27.3,54,0,8.75,CV,1680889067
394,lata,40.1629,-8.3327,18.78,46,28,2.39,PT,1680889208
395,bayir,37.2687,28.2167,11.29,81,17,1.45,TR,1680889208
396,santa rosa,14.3122,121.1114,28.39,77,86,2.3,PH,1680888906
397,la ronge,55.1001,-105.2842,1.14,47,0,4.63,CA,1680889209
398,north bend,43.4065,-124.2243,10.51,94,100,3.6,US,1680889045
399,honiara,-9.4333,159.95,25.15,87,43,1.42,SB,1680889210
400,slonim,53.0867,25.3219,6.82,83,100,2.36,BY,1680889211
401,hami,42.8,93.45,11.65,11,82,1.68,CN,1680889212
402,ciupercenii noi,43.9097,22.9483,6.44,78,98,1.65,RO,1680889213
403,rio grande,-32.035,-52.0986,26.06,60,50,5.17,BR,1680889213
404,gao,16.6362,1.637,33.4,14,39,3.58,ML,1680889214
405,namatanai,-3.6667,152.4333,25.66,86,90,1.26,PG,1680889214
406,dalianwan,39.0286,121.695,6.02,61,0,3.0,CN,1680889214
407,teguise,29.0605,-13.564,19.12,56,20,5.14,ES,1680889215
408,two rivers,44.1539,-87.5693,5.0,56,0,5.14,US,1680889215
409,belaya gora,68.5333,146.4167,-28.6,100,93,1.12,RU,1680889216
410,chimbote,-9.0853,-78.5783,27.97,64,100,3.94,PE,1680889216
411,banjar,-8.19,114.9675,24.8,90,100,2.24,ID,1680889217
412,arkhipo-osipovka,44.37,38.52,9.96,91,95,3.58,RU,1680889218
413,sur,22.5667,59.5289,26.11,65,0,4.03,OM,1680889218
414,ishigaki,24.3448,124.1572,19.07,72,100,7.72,JP,1680889219
415,nome,64.5011,-165.4064,-28.96,100,20,0.0,US,1680888811
416,la asuncion,11.0333,-63.8628,26.84,67,100,9.82,VE,1680889220
417,wote,-1.7808,37.6288,19.73,86,41,0.8,KE,1680889221
418,aklavik,68.2191,-135.0107,-14.37,93,100,7.07,CA,1680889222
419,nurota,40.5614,65.6886,17.04,51,70,2.74,UZ,1680889222
420,zhaodong,46.0833,125.9833,-2.02,83,88,2.23,CN,1680889223
421,ossora,59.2353,163.0719,-18.03,88,4,2.48,RU,1680889224
422,nabire,-3.3667,135.4833,23.78,91,100,1.57,ID,1680889225
423,alpena,45.0617,-83.4327,2.84,50,100,3.6,US,1680889225
424,la fleche,47.6982,-0.0755,16.14,68,96,2.14,FR,1680889226
425,cockburn town,21.4612,-71.1419,25.04,71,53,10.17,TC,1680889226
426,quatre cocos,-20.2078,57.7625,26.06,74,63,5.34,MU,1680889227
427,alindao,5.0267,21.2088,26.14,61,73,3.79,CF,1680889227
428,sajanan,37.0573,9.2426,14.51,55,82,3.18,TN,1680889229
429,el roble,9.1019,-75.1951,32.52,47,87,2.67,CO,1680889229
430,palu,-0.8917,119.8707,23.12,90,100,0.65,ID,1680889230
431,srednekolymsk,67.45,153.6833,-24.87,100,100,0.82,RU,1680889231
432,adeje,28.1227,-16.726,19.62,75,20,3.09,ES,1680889232
433,gravdal,68.1214,13.5031,3.88,93,97,9.64,NO,1680889232
434,tromso,69.6496,18.957,1.01,93,75,2.57,NO,1680889233
435,victor harbor,-35.5667,138.6167,14.27,80,94,4.86,AU,1680889233
436,ust-omchug,61.15,149.6333,-18.69,99,97,0.76,RU,1680889234
437,voloshka,61.3314,40.0858,-4.59,96,12,1.48,RU,1680889234
438,wajima,37.4,136.9,10.5,86,14,4.58,JP,1680889235
439,maarianhamina,60.0973,19.9348,1.92,93,20,3.09,AX,1680889235
440,cabedelo,-6.9811,-34.8339,31.37,71,49,5.17,BR,1680889236
441,asau,46.4333,26.4,2.51,100,100,0.98,RO,1680889237
442,yen bai,21.7,104.8667,21.18,89,100,0.64,VN,1680889237
443,beloha,-25.1667,45.05,24.28,80,19,4.22,MG,1680889238
444,teknaf,20.8624,92.3058,23.56,51,1,2.22,BD,1680889238
445,coka,45.9425,20.1433,4.88,82,100,2.31,RS,1680889239
446,milkovo,54.7167,158.6167,-3.63,80,100,0.98,RU,1680889239
447,trairi,-3.2778,-39.2689,28.2,74,88,4.29,BR,1680889135
448,laguna,38.421,-121.4238,14.01,80,100,4.63,US,1680889240
449,cairns,-16.9167,145.7667,26.97,86,100,1.03,AU,1680889240
450,almaty,43.25,76.95,9.95,66,75,5.0,KZ,1680889241
451,villa carlos paz,-31.4241,-64.4978,27.44,36,25,4.02,AR,1680889241
452,alta floresta,-9.8756,-56.0861,29.9,70,40,2.06,BR,1680889242
453,maun,-19.9833,23.4167,26.98,41,0,2.06,BW,1680889242
454,aksu,41.1231,80.2644,12.02,18,100,1.71,CN,1680889243
455,road town,18.4167,-64.6167,28.02,65,40,4.63,VG,1680889229
456,sola,-13.8833,167.55,27.55,75,49,2.09,VU,1680889244
457,samarai,-10.6167,150.6667,27.95,78,100,2.86,PG,1680889245
458,bairiki,1.3292,172.9752,28.0,78,40,4.12,KI,1680889245
459,puerto colombia,10.9878,-74.9547,32.05,73,62,9.3,CO,1680889246
460,isangel,-19.55,169.2667,24.56,79,0,0.54,VU,1680889247
461,chicama,-7.8447,-79.1469,27.3,59,100,4.3,PE,1680889248
462,isla mujeres,21.2311,-86.731,29.03,66,2,5.75,MX,1680889248
463,balabac,7.9868,117.0645,26.53,77,4,3.35,PH,1680889249
464,ewo,-0.8725,14.8206,23.64,91,84,1.93,CG,1680889249
465,malanje,-9.5402,16.341,19.78,90,81,0.94,AO,1680889250
466,lokosovo,61.1333,74.8167,-12.56,84,50,7.17,RU,1680889250
467,campbellton,48.0075,-66.6727,3.25,81,99,8.16,CA,1680889251
468,jiuquan,39.7432,98.5174,7.14,19,22,2.5,CN,1680889251
469,komsomolskiy,40.4272,71.7189,16.4,48,75,1.03,UZ,1680889252
470,camargo,27.6667,-105.1667,19.82,27,0,2.02,MX,1680889252
471,dawei,14.0833,98.2,25.45,87,97,0.78,MM,1680889253
472,port maria,18.3685,-76.8895,28.98,78,17,5.15,JM,1680889254
473,mayor pablo lagerenza,-19.9309,-60.7718,28.06,54,100,2.62,PY,1680889254
474,san marcos,33.1434,-117.1661,21.57,49,0,1.54,US,1680889255
475,mumford,5.2618,-0.759,28.2,80,99,5.95,GH,1680889256
476,upington,-28.4478,21.2561,28.21,17,0,3.09,ZA,1680889256
477,sotnikovskoye,45.0039,43.7772,12.96,57,98,2.56,RU,1680889257
478,okato,-39.2,173.8833,12.73,82,100,1.79,NZ,1680889257
479,berdigestyakh,62.0989,126.6992,-8.74,94,100,6.65,RU,1680889258
480,port hawkesbury,45.6169,-61.3485,11.06,54,0,10.8,CA,1680889258
481,kyzyl-suu,42.3414,78.0056,4.57,81,100,4.92,KG,1680889259
482,medvedovskaya,45.4531,39.0258,10.65,93,88,3.63,RU,1680889259
483,rehoboth,-23.3167,17.0833,23.12,30,84,4.31,NA,1680889260
484,doha,25.2867,51.5333,25.17,58,0,3.09,QA,1680889110
485,lavrentiya,65.5833,-171.0,-24.35,88,100,3.03,RU,1680889262
486,port lincoln,-34.7333,135.8667,16.82,77,89,7.53,AU,1680889263
487,alofi,-19.0595,-169.9187,21.94,100,47,0.51,NU,1680889263
488,kurilsk,45.2333,147.8833,2.95,99,100,2.29,RU,1680889264
489,zaysan,47.4667,84.8667,11.51,37,92,3.22,KZ,1680889264
490,nagorsk,59.3172,50.8078,-3.33,86,3,0.72,RU,1680889265
491,taoudenni,22.6783,-3.9836,31.51,9,0,2.58,ML,1680889265
492,san cristobal,7.7669,-72.225,23.1,72,100,0.99,VE,1680889266
493,trang,7.5,99.5,24.56,91,70,0.84,TH,1680889266
494,kushima,31.4583,131.2333,13.35,84,0,4.45,JP,1680889267
495,oranjemund,-28.55,16.4333,16.08,85,3,4.6,NA,1680889267
496,port augusta,-32.5,137.7667,15.91,80,21,4.45,AU,1680889268
497,manicore,-5.8092,-61.3003,28.97,70,40,3.09,BR,1680889268
498,petropavlovsk-kamchatskiy,53.0452,158.6483,-0.67,86,100,1.0,RU,1680889269
499,bud,39.447,-86.1758,13.28,43,100,4.77,US,1680889269
500,meulaboh,4.1363,96.1285,24.32,91,100,1.42,ID,1680889270
501,ostrovnoy,68.0531,39.5131,2.08,90,99,7.48,RU,1680889270
502,taltal,-25.4,-70.4833,21.88,71,13,2.41,CL,1680889271
503,birin,26.8865,88.0718,14.53,50,5,3.27,NP,1680889272
504,inirida,3.8653,-67.9239,33.39,47,100,1.22,CO,1680889272
505,avanigadda,16.0215,80.9181,26.3,77,4,2.71,IN,1680889273
506,murray bridge,-35.1167,139.2667,16.18,76,99,5.13,AU,1680889273
507,south river,40.4465,-74.386,14.5,31,96,2.24,US,1680889274
508,kapoeta,4.7717,33.5903,31.96,33,81,5.98,SS,1680889275
509,cacahoatan,14.9833,-92.1667,30.11,53,25,3.4,MX,1680889275
510,sorrento,40.626,14.3744,13.39,79,1,0.89,IT,1680889276
511,oriximina,-1.7656,-55.8661,30.87,56,96,0.7,BR,1680889277
512,turukhansk,65.8167,87.9833,-23.19,100,100,2.58,RU,1680889277
513,rexburg,43.826,-111.7897,-1.27,54,0,2.57,US,1680889047
514,najran,17.4924,44.1277,27.36,39,70,1.04,SA,1680889279
515,broken hill,-31.95,141.4333,14.73,72,0,5.74,AU,1680889279
516,acari,-15.4311,-74.6158,30.8,54,12,4.92,PE,1680889280
517,letlhakane,-21.4167,25.5833,24.29,32,0,2.52,BW,1680889280
518,bataipora,-22.2953,-53.2711,25.07,81,98,0.71,BR,1680889281
519,chiriqui grande,8.95,-82.1167,28.04,67,92,2.42,PA,1680889281
520,katangli,51.7102,143.2326,-2.26,96,100,6.2,RU,1680889282
521,coahuayana,18.7333,-103.6833,31.16,35,0,3.84,MX,1680889283
522,reyes,-14.3167,-67.3833,29.98,62,75,4.12,BO,1680889283
523,vila franca do campo,37.7167,-25.4333,12.23,60,87,6.2,PT,1680889284
524,ilam,26.9167,87.9167,17.7,42,5,2.96,NP,1680889204
525,somerville,42.3876,-71.0995,15.61,27,75,9.26,US,1680889077
526,murud,18.3258,72.965,28.6,58,69,3.94,IN,1680889285
527,praia,14.9215,-23.5087,27.3,54,0,8.75,CV,1680889036
528,anuradhapura,8.3565,80.4173,23.0,84,62,1.38,LK,1680889287
529,bento goncalves,-29.1714,-51.5192,19.55,93,97,0.95,BR,1680889093
530,makakilo city,21.3469,-158.0858,24.18,76,0,3.09,US,1680889288
531,abu samrah,35.3029,37.1841,13.9,52,6,3.87,SY,1680889288
532,lady frere,-31.7031,27.2329,17.29,81,84,2.8,ZA,1680889289
533,rawah,34.4816,41.9093,23.25,26,16,8.57,IQ,1680889290
534,burnie,-41.0667,145.9167,13.3,72,85,6.25,AU,1680889291
535,menongue,-14.6585,17.691,21.42,56,89,3.18,AO,1680889291
536,olinda,-8.0089,-34.8553,29.85,62,20,5.14,BR,1680889042
537,panzhihua,26.5851,101.7128,17.1,35,0,0.43,CN,1680889292
538,stawell,-37.05,142.7667,12.91,81,92,3.59,AU,1680889293
539,placido de castro,-10.3353,-67.1856,24.66,96,97,1.99,BR,1680889294
540,san pablo de borbur,5.6603,-74.0621,26.64,79,98,1.46,CO,1680889294
541,bubaque,11.2833,-15.8333,25.36,71,29,6.35,GW,1680889295
542,vanimo,-2.6741,141.3028,27.62,77,100,3.92,PG,1680889295
543,grindavik,63.8424,-22.4338,8.97,87,100,22.12,IS,1680889296
544,agirish,61.9247,63.0231,-6.5,85,95,4.91,RU,1680889296
545,auki,-8.7676,160.7034,24.96,86,55,1.61,SB,1680889297
546,jumla,29.2747,82.1838,7.25,53,1,2.14,NP,1680889144
547,pisco,-13.7,-76.2167,26.03,78,0,5.14,PE,1680889240
548,alihe,50.5667,123.7167,-8.94,94,32,0.96,CN,1680889298
549,tateyama,34.9833,139.8667,17.8,82,83,10.22,JP,1680889299
550,elk plain,47.0532,-122.3976,11.44,91,100,4.12,US,1680889299
551,mayo,38.8876,-76.5119,14.23,49,100,2.06,US,1680889299
552,mbandaka,0.0487,18.2603,24.24,82,62,0.55,CD,1680889300
553,jining,35.405,116.5814,6.87,37,18,2.07,CN,1680889300
554,mwene-ditu,-7.0,23.45,20.89,90,68,0.59,CD,1680889301
555,sangar,63.9242,127.4739,-12.06,80,100,13.27,RU,1680889301
556,kinshasa,-4.3246,15.3215,26.49,77,98,1.76,CD,1680889302
557,henties bay,-22.116,14.2845,16.49,89,46,4.14,NA,1680889302
558,westport,41.1415,-73.3579,14.53,26,0,6.69,US,1680889303
559,puksoozero,62.5903,40.6066,-3.92,95,23,1.28,RU,1680889303
560,catamarca,-28.4696,-65.7852,30.99,39,14,1.79,AR,1680889303
561,vostok,46.4856,135.8833,-5.66,83,70,1.27,RU,1680889304
562,kisesa,-3.0833,34.15,19.42,82,45,3.06,TZ,1680889304
563,alappuzha,9.49,76.3264,27.25,76,21,1.53,IN,1680889305
564,orkney,-26.9802,26.6727,20.74,33,21,1.8,ZA,1680889306
565,cuiluan,47.72,128.648,-0.01,82,100,3.65,CN,1680889307
566,hobyo,5.3505,48.5268,28.11,67,14,6.45,SO,1680889307
567,plettenberg bay,-34.0527,23.3716,17.46,92,27,2.07,ZA,1680889308
568,ukiah,39.1502,-123.2078,12.03,87,100,5.14,US,1680889211
569,maceio,-9.6658,-35.7353,30.69,66,40,5.66,BR,1680889133
570,muli,2.9167,73.5667,28.07,68,56,1.49,MV,1680889310
571,tocopilla,-22.092,-70.1979,24.16,69,10,3.02,CL,1680889109
